[
  { "id": "H01_EVAL_LAB", "name": "Animal Welfare Research Lab", "lat": 40.7128, "lng": -74.0060, "iso3": "USA", "type": "research" },
  { "id": "H02_OPS_CENTER", "name": "Welfare Enforcement Center", "lat": 51.5074, "lng": -0.1278, "iso3": "GBR", "type": "enforcement" },
  { "id": "H03_REG_LIAISON", "name": "Regulatory Affairs Office", "lat": 48.8566, "lng": 2.3522, "iso3": "FRA", "type": "regulatory" },
  { "id": "H04_DATA_HUB", "name": "Welfare Data Hub", "lat": 52.5200, "lng": 13.4050, "iso3": "DEU", "type": "data" },
  { "id": "H05_VENDOR_OPS", "name": "Alternative Protein Lab", "lat": 39.9042, "lng": 116.4074, "iso3": "CHN", "type": "innovation" },
  { "id": "H06_REVIEW_BOARD", "name": "Welfare Review Board", "lat": 28.6139, "lng": 77.2090, "iso3": "IND", "type": "governance" },
  { "id": "H07_POLICY_COUNSEL", "name": "Animal Policy Institute", "lat": -33.8688, "lng": 151.2093, "iso3": "AUS", "type": "policy" },
  { "id": "H08_COMPLIANCE", "name": "Compliance Office", "lat": -23.5505, "lng": -46.6333, "iso3": "BRA", "type": "compliance" },
  { "id": "H09_RISK_OFFICE", "name": "Conservation Risk Office", "lat": -25.7461, "lng": 28.1881, "iso3": "ZAF", "type": "conservation" },
  { "id": "H10_COORDINATION", "name": "International Coordination Center", "lat": 19.4326, "lng": -99.1332, "iso3": "MEX", "type": "coordination" }
]
